{
    "services": [
        {
            "id": 1,
            "mapid": 5956869,
            "userid": 2,
            "name": "204Coffee",
            "road": "Kiệt 206 Đống Đa",
            "ward": "Thuận Phước",
            "district": "Quận Hải Châu",
            "city": "Thành phố Đà Nẵng",
            "phone": "0236 3866 135",
            "address": "Kiệt 206 Đống Đa, Thuận Phước, Hải Châu, Thành phố Đà Nẵng, Việt Nam",
            "type": "cafe",
            "lat": "16.0785116",
            "lon": "108.2170218",
            "star": 3,
            "host": "Nguyễn Văn Tùng",
            "description": "Aura house là một ngôi nhà tre sinh thái đẹp & độc đáo được xây dựng ở bờ tây của sông Ayung hướng về phía đông để đón bình minh.",
            "startday": "05/09/2022"
        },
        {
            "id": 2,
            "mapid": 5959924,
            "userid": 3,
            "name": "MyPhuc Coffee",
            "road": "Đường Thanh Sơn",
            "ward": "Thanh Bình",
            "district": "Hải Châu",
            "city": "Thành phố Đà Nẵng",
            "phone": "0236 3866 135",
            "address": "Đường Thanh Sơn, Thanh Bình, Hải Châu, Thành phố Đà Nẵng, Việt Nam",
            "type": "cafe",
            "lat": "16.0799961",
            "lon": "108.213197",
            "star": 3,
            "host": "Nguyễn Văn Tùng",
            "description": "Aura house là một ngôi nhà tre sinh thái đẹp & độc đáo được xây dựng ở bờ tây của sông Ayung hướng về phía đông để đón bình minh.",
            "startday": "05/09/2022"
        },
        {
            "id": 3,
            "mapid": 5852106,
            "userid": 5,
            "name": "ClassicCoffee",
            "road": "Đường Phan Thanh",
            "ward": "Thạc Gián",
            "district": "Thanh Khê",
            "city": "Thành phố Đà Nẵng",
            "phone": "0236 3866 135",
            "address": "Đường Phan Thanh, Thạc Gián, Thanh Khê, Thành phố Đà Nẵng, Việt Nam",
            "type": "cafe",
            "lat": "16.0653064",
            "lon": "108.2078622",
            "star": 3,
            "host": "Nguyễn Văn Tùng",
            "description": "Aura house là một ngôi nhà tre sinh thái đẹp & độc đáo được xây dựng ở bờ tây của sông Ayung hướng về phía đông để đón bình minh.",
            "startday": "05/09/2022"
        },
        {
            "id": 4,
            "mapid": 5974721,
            "userid": 2,
            "name": "CaPhe Truc Lam Vien",
            "road": "Đường Lê Đình Dương",
            "ward": "Phước Ninh",
            "district": "Hải Châu",
            "city": "Thành phố Đà Nẵng",
            "phone": "0236 3866 135",
            "address": " Đường Lê Đình Dương, Phước Ninh, Hải Châu, Thành phố Đà Nẵng, Việt Nam",
            "type": "cafe",
            "lat": "16.0614699",
            "lon": "108.2207715",
            "star": 3,
            "host": "Nguyễn Văn Tùng",
            "description": "Aura house là một ngôi nhà tre sinh thái đẹp & độc đáo được xây dựng ở bờ tây của sông Ayung hướng về phía đông để đón bình minh.",
            "startday": "05/09/2022"
        },
        {
            "id": 5,
            "mapid": 5989357,
            "userid": 3,
            "name": "CaPhe Nhu Y",
            "road": "Đường Lê Đình Dương",
            "ward": "Phước Ninh",
            "district": "Hải Châu",
            "city": "Thành phố Đà Nẵng",
            "phone": "0236 3866 135",
            "address": " Đường Lê Đình Dương, Phước Ninh, Hải Châu, Thành phố Đà Nẵng, Việt Nam",
            "type": "cafe",
            "lat": "16.0612534",
            "lon": "108.222059",
            "star": 3,
            "host": "Nguyễn Văn Tùng",
            "description": "Aura house là một ngôi nhà tre sinh thái đẹp & độc đáo được xây dựng ở bờ tây của sông Ayung hướng về phía đông để đón bình minh.",
            "startday": "05/09/2022"
        },
        {
            "id": 6,
            "mapid": 5929985,
            "userid": 5,
            "name": "Cafe Den Bin",
            "road": "Đường Lê Lợi",
            "ward": "Hải Châu I",
            "district": "Hải Châu",
            "city": "Thành phố Đà Nẵng",
            "phone": "0236 3866 135",
            "address": " Đường Lê Lợi, Phường Hải Châu I, Hải Châu, Thành phố Đà Nẵng, Việt Nam",
            "type": "cafe",
            "lat": "16.0733879",
            "lon": "108.2200581",
            "star": 3,
            "host": "Nguyễn Văn Tùng",
            "description": "Aura house là một ngôi nhà tre sinh thái đẹp & độc đáo được xây dựng ở bờ tây của sông Ayung hướng về phía đông để đón bình minh.",
            "startday": "05/09/2022"
        },
        {
            "id": 7,
            "mapid": 6024261,
            "userid": 2,
            "name": "EvePub",
            "road": "Trần Phú",
            "ward": "Hải Châu I",
            "district": "Hải Châu",
            "city": "Thành phố Đà Nẵng",
            "phone": "0236 3866 135",
            "address": " Trần Phú, Hải Châu I, Hải Châu, Thành phố Đà Nẵng, Việt Nam",
            "type": "cafe",
            "lat": "16.0708702",
            "lon": "108.2239075",
            "star": 3,
            "host": "Nguyễn Văn Tùng",
            "description": "Aura house là một ngôi nhà tre sinh thái đẹp & độc đáo được xây dựng ở bờ tây của sông Ayung hướng về phía đông để đón bình minh.",
            "startday": "05/09/2022"
        },
        {
            "id": 8,
            "mapid": 6043578,
            "userid": 3,
            "name": "Piggy",
            "road": "Đường Nguyễn Chí Thanh",
            "ward": "Hải Châu I",
            "district": "Hải Châu",
            "city": "Thành phố Đà Nẵng",
            "phone": "0236 3866 135",
            "address": " Đường Nguyễn Chí Thanh, Hải Châu I, Hải Châu, Thành phố Đà Nẵng, Việt Nam",
            "type": "cafe",
            "lat": "16.0722436",
            "lon": "108.2210076",
            "star": 3,
            "host": "Nguyễn Văn Tùng",
            "description": "Aura house là một ngôi nhà tre sinh thái đẹp & độc đáo được xây dựng ở bờ tây của sông Ayung hướng về phía đông để đón bình minh.",
            "startday": "05/09/2022"
        },
        {
            "id": 9,
            "mapid": 5787216,
            "userid": 5,
            "name": "CafeNew Life",
            "road": "Đường Hoàng Diệu",
            "ward": "Phước Ninh",
            "district": "Hải Châu",
            "city": "Thành phố Đà Nẵng",
            "phone": "0236 3866 135",
            "address": " Đường Hoàng Diệu, Phường Phước Ninh, Hải Châu, Thành phố Đà Nẵng, Việt Nam",
            "type": "cafe",
            "lat": "16.0660578",
            "lon": "108.2198757",
            "star": 3,
            "host": "Nguyễn Văn Tùng",
            "description": "Aura house là một ngôi nhà tre sinh thái đẹp & độc đáo được xây dựng ở bờ tây của sông Ayung hướng về phía đông để đón bình minh.",
            "startday": "05/09/2022"
        },
        {
            "id": 10,
            "mapid": 6013314,
            "userid": 2,
            "name": "CayBang Coffee",
            "road": "Đường Dã Tượng",
            "ward": "Mân Thái",
            "district": "Sơn Trà",
            "city": "Thành phố Đà Nẵng",
            "phone": "0236 3866 135",
            "address": " Đường Dã Tượng, Mân Thái, Sơn Trà, Thành phố Đà Nẵng, Việt Nam",
            "type": "cafe",
            "lat": "16.0899132",
            "lon": "108.2420341",
            "star": 3,
            "host": "Nguyễn Văn Tùng",
            "description": "Aura house là một ngôi nhà tre sinh thái đẹp & độc đáo được xây dựng ở bờ tây của sông Ayung hướng về phía đông để đón bình minh.",
            "startday": "05/09/2022"
        },
        {
            "id": 11,
            "mapid": 74360299,
            "userid": 3,
            "name": "My Home Coffee",
            "road": "Đường Trần Hưng Đạo",
            "ward": "An Hải Tây",
            "district": "Sơn Trà",
            "city": "Thành phố Đà Nẵng",
            "phone": "0236 3866 135",
            "address": " Đường Trần Hưng Đạo, An Hải Tây, Sơn Trà, Thành phố Đà Nẵng, Việt Nam",
            "type": "cafe",
            "lat": "16.0552175",
            "lon": "108.2324928",
            "star": 3,
            "host": "Nguyễn Văn Tùng",
            "description": "Aura house là một ngôi nhà tre sinh thái đẹp & độc đáo được xây dựng ở bờ tây của sông Ayung hướng về phía đông để đón bình minh.",
            "startday": "05/09/2022"
        },
        {
            "id": 12,
            "mapid": 56515807,
            "userid": 5,
            "name": "Andy coffee",
            "road": "Đường Hoài Thanh",
            "ward": "Mỹ An",
            "district": "Ngũ Hành Sơn",
            "city": "Thành phố Đà Nẵng",
            "phone": "0236 3866 135",
            "address": " Đường Hoài Thanh, Mỹ An, Ngũ Hành Sơn, Thành phố Đà Nẵng, Việt Nam",
            "type": "cafe",
            "lat": "16.0469921",
            "lon": "108.2374074",
            "star": 3,
            "host": "Nguyễn Văn Tùng",
            "description": "Aura house là một ngôi nhà tre sinh thái đẹp & độc đáo được xây dựng ở bờ tây của sông Ayung hướng về phía đông để đón bình minh.",
            "startday": "05/09/2022"
        },
        {
            "id": 13,
            "mapid": 72205702,
            "userid": 2,
            "name": "Art for Life coffe",
            "road": "Đường 2 Tháng 9",
            "ward": "Hòa Cường Bắc",
            "district": "Hải Châu",
            "city": "Thành phố Đà Nẵng",
            "phone": "0236 3866 135",
            "address": " Đường 2 Tháng 9, Hòa Cường Bắc, Hải Châu, Thành phố Đà Nẵng, Việt Nam",
            "type": "cafe",
            "lat": "16.0358122",
            "lon": "108.223819",
            "star": 3,
            "host": "Nguyễn Văn Tùng",
            "description": "Aura house là một ngôi nhà tre sinh thái đẹp & độc đáo được xây dựng ở bờ tây của sông Ayung hướng về phía đông để đón bình minh.",
            "startday": "05/09/2022"
        },
        {
            "id": 14,
            "mapid": 58774370,
            "userid": 3,
            "name": "Eva Beer",
            "road": "Xô Viết Nghệ Tĩnh",
            "ward": "Khuê Trung",
            "district": "Cẩm Lệ",
            "city": "Thành phố Đà Nẵng",
            "phone": "0236 3866 135",
            "address": " Xô Viết Nghệ Tĩnh, Khuê Trung, Cẩm Lệ, Thành phố Đà Nẵng, Việt Nam",
            "type": "cafe",
            "lat": "16.0315264",
            "lon": "108.2095739",
            "star": 3,
            "host": "Nguyễn Văn Tùng",
            "description": "Aura house là một ngôi nhà tre sinh thái đẹp & độc đáo được xây dựng ở bờ tây của sông Ayung hướng về phía đông để đón bình minh.",
            "startday": "05/09/2022"
        },
        {
            "id": 15,
            "mapid": 5844515,
            "userid": 5,
            "name": "Cafe New Style",
            "road": "Đường Cách Mạng Tháng Tám",
            "ward": "Hòa Thọ Đông",
            "district": "Cẩm Lệ",
            "city": "Thành phố Đà Nẵng",
            "phone": "0236 3866 135",
            "address": " Đường Cách Mạng Tháng Tám, Hòa Thọ Đông, Cẩm Lệ, Thành phố Đà Nẵng, Việt Nam",
            "type": "cafe",
            "lat": "16.0161779",
            "lon": "108.2022267",
            "star": 3,
            "host": "Nguyễn Văn Tùng",
            "description": "Aura house là một ngôi nhà tre sinh thái đẹp & độc đáo được xây dựng ở bờ tây của sông Ayung hướng về phía đông để đón bình minh.",
            "startday": "05/09/2022"
        },
        {
            "id": 16,
            "mapid": 5911962,
            "userid": 2,
            "name": "HoaLan Coffee",
            "road": "Trường Chinh",
            "ward": "An Khê",
            "district": "Thanh Khê",
            "city": "Thành phố Đà Nẵng",
            "phone": "0236 3866 135",
            "address": " Trường Chinh, Phường An Khê, Thanh Khê, Thành phố Đà Nẵng, Việt Nam",
            "type": "cafe",
            "lat": "16.0445761",
            "lon": "108.1847441",
            "star": 3,
            "host": "Nguyễn Văn Tùng",
            "description": "Aura house là một ngôi nhà tre sinh thái đẹp & độc đáo được xây dựng ở bờ tây của sông Ayung hướng về phía đông để đón bình minh.",
            "startday": "05/09/2022"
        },
        {
            "id": 17,
            "mapid": 5846581,
            "userid": 3,
            "name": "HuongHoa Coffee",
            "road": "Trường Chinh",
            "ward": "Hòa An",
            "district": "Cẩm Lệ",
            "city": "Thành phố Đà Nẵng",
            "phone": "0236 3866 135",
            "address": " Trường Chinh, Phường Hòa An, Cẩm Lệ, Thành phố Đà Nẵng, Việt Nam",
            "type": "cafe",
            "lat": "16.0599697",
            "lon": "108.1793743",
            "star": 3,
            "host": "Nguyễn Văn Tùng",
            "description": "Aura house là một ngôi nhà tre sinh thái đẹp & độc đáo được xây dựng ở bờ tây của sông Ayung hướng về phía đông để đón bình minh.",
            "startday": "05/09/2022"
        },
        {
            "id": 18,
            "mapid": 5998653,
            "userid": 5,
            "name": "CaPhe Sao Mai",
            "road": "Đường Hoàng Thị Loan",
            "ward": "Hòa Minh",
            "district": "Liên Chiểu",
            "city": "Thành phố Đà Nẵng",
            "phone": "0236 3866 135",
            "address": " Đường Hoàng Thị Loan, Liên Chiểu, Thành phố Đà Nẵng, Việt Nam",
            "type": "cafe",
            "lat": "16.0668568",
            "lon": "108.1743586",
            "star": 3,
            "host": "Nguyễn Văn Tùng",
            "description": "Aura house là một ngôi nhà tre sinh thái đẹp & độc đáo được xây dựng ở bờ tây của sông Ayung hướng về phía đông để đón bình minh.",
            "startday": "05/09/2022"
        },
        {
            "id": 19,
            "mapid": 5955250,
            "userid": 2,
            "name": "Ca Phe Ngoc Lan",
            "road": "Đường Nguyễn Huy Tưởng",
            "ward": "Hòa Minh",
            "district": "Liên Chiểu",
            "city": "Thành phố Đà Nẵng",
            "phone": "0236 3866 135",
            "address": " Đường Nguyễn Huy Tưởng, Liên Chiểu, Thành phố Đà Nẵng, Việt Nam",
            "type": "cafe",
            "lat": "16.0545981",
            "lon": "108.1692302",
            "star": 3,
            "host": "Nguyễn Văn Tùng",
            "description": "Aura house là một ngôi nhà tre sinh thái đẹp & độc đáo được xây dựng ở bờ tây của sông Ayung hướng về phía đông để đón bình minh.",
            "startday": "05/09/2022"
        },
        {
            "id":20,
            "mapid": 5830972,
            "userid": 3,
            "name": "Ca Phe Bay Cha",
            "road": "Đường Tô Hiệu",
            "ward": "Hòa Minh",
            "district": "Liên Chiểu",
            "city": "Thành phố Đà Nẵng",
            "phone": "0236 3866 135",
            "address": " Đường Tô Hiệu, Liên Chiểu, Thành phố Đà Nẵng, Việt Nam",
            "type": "cafe",
            "lat": "16.057253",
            "lon": "108.1686401",
            "star": 3,
            "host": "Nguyễn Văn Tùng",
            "description": "Aura house là một ngôi nhà tre sinh thái đẹp & độc đáo được xây dựng ở bờ tây của sông Ayung hướng về phía đông để đón bình minh.",
            "startday": "05/09/2022"
        },
        {
            "id": 21,
            "mapid": 5807080,
            "userid": 5,
            "name": "VuonThao Coffee",
            "road": "Đường Lý Thái Tổ",
            "ward": "Thạc Gián",
            "district": "Thanh Khê",
            "city": "Thành phố Đà Nẵng",
            "phone": "0236 3866 135",
            "address": " Đường Lý Thái Tổ, Thạc Gián, Thanh Khê, Thành phố Đà Nẵng, Việt Nam",
            "type": "cafe",
            "lat": "16.0653619",
            "lon": "108.2069099",
            "star": 3,
            "host": "Nguyễn Văn Tùng",
            "description": "Aura house là một ngôi nhà tre sinh thái đẹp & độc đáo được xây dựng ở bờ tây của sông Ayung hướng về phía đông để đón bình minh.",
            "startday": "05/09/2022"
        },
        {
            "id": 22,
            "mapid": 76191954,
            "userid": 2,
            "name": "Golden dragon",
            "road": "Đường Đảo Xanh 1",
            "ward": "Hòa Cường Bắc",
            "district": "Hải Châu",
            "city": "Thành phố Đà Nẵng",
            "phone": "0236 3866 135",
            "address": " Đường Đảo Xanh 1, Hòa Cường Bắc, Hải Châu, Thành phố Đà Nẵng, Việt Nam",
            "type": "restaurant",
            "lat": "16.0483659",
            "lon": "108.2268229",
            "star": 3,
            "host": "Nguyễn Văn Tùng",
            "description": "Aura house là một ngôi nhà tre sinh thái đẹp & độc đáo được xây dựng ở bờ tây của sông Ayung hướng về phía đông để đón bình minh.",
            "startday": "05/09/2022"
        },
        {
            "id": 23,
            "mapid": 76380786,
            "userid": 3,
            "name": "Panorama",
            "road": "Đường Nguyễn Văn Thoại",
            "ward": "Mỹ An",
            "district": "Ngũ Hành Sơn",
            "city": "Thành phố Đà Nẵng",
            "phone": "0236 3866 135",
            "address": " Đường Nguyễn Văn Thoại, Mỹ An, Ngũ Hành Sơn, Thành phố Đà Nẵng, 02363, Việt Nam",
            "type": "restaurant",
            "lat": "16.0547604",
            "lon": "108.24349",
            "star": 3,
            "host": "Nguyễn Văn Tùng",
            "description": "Aura house là một ngôi nhà tre sinh thái đẹp & độc đáo được xây dựng ở bờ tây của sông Ayung hướng về phía đông để đón bình minh.",
            "startday": "05/09/2022"
        },
        {
            "id": 24,
            "mapid": 53991491,
            "userid": 5,
            "name": "Soho",
            "road": "Đường Trần Hưng Đạo",
            "ward": "An Hải Tây",
            "district": "Sơn Trà",
            "city": "Thành phố Đà Nẵng",
            "phone": "0236 3866 135",
            "address": " Đường Trần Hưng Đạo, An Hải Tây, Sơn Trà, Thành phố Đà Nẵng, Việt Nam",
            "type": "restaurant",
            "lat": "16.0650694",
            "lon": "108.2298753",
            "star": 3,
            "host": "Nguyễn Văn Tùng",
            "description": "Aura house là một ngôi nhà tre sinh thái đẹp & độc đáo được xây dựng ở bờ tây của sông Ayung hướng về phía đông để đón bình minh.",
            "startday": "05/09/2022"
        },
        {
            "id": 25,
            "mapid": 50398821,
            "userid": 2,
            "name": "Madam Lan",
            "road": "Đường Trần Phú",
            "ward": "Thạch Thang",
            "district": "Hải Châu",
            "city": "Thành phố Đà Nẵng",
            "phone": "0236 3866 135",
            "address": " Đường Trần Phú, Thạch Thang, Hải Châu, Thành phố Đà Nẵng, Việt Nam",
            "type": "restaurant",
            "lat": "16.0813554",
            "lon": "108.2229668",
            "star": 3,
            "host": "Nguyễn Văn Tùng",
            "description": "Aura house là một ngôi nhà tre sinh thái đẹp & độc đáo được xây dựng ở bờ tây của sông Ayung hướng về phía đông để đón bình minh.",
            "startday": "05/09/2022"
        },
        {
            "id": 26,
            "mapid": 36884170,
            "userid": 3,
            "name": "N&M",
            "road": "Đường Bạch Đằng",
            "ward": "Hòa Cường Bắc",
            "district": "Hải Châu",
            "city": "Thành phố Đà Nẵng",
            "phone": "0236 3866 135",
            "address": " Đường Bạch Đằng, Hòa Cường Bắc, Hải Châu, Thành phố Đà Nẵng, Việt Nam",
            "type": "restaurant",
            "lat": "16.0426825",
            "lon": "108.2243357",
            "star": 3,
            "host": "Nguyễn Văn Tùng",
            "description": "Aura house là một ngôi nhà tre sinh thái đẹp & độc đáo được xây dựng ở bờ tây của sông Ayung hướng về phía đông để đón bình minh.",
            "startday": "05/09/2022"
        },
        {
            "id": 27,
            "mapid": 50332768,
            "userid": 5,
            "name": "Quán Bé Mặn",
            "road": "Đường Võ Nguyên Giáp",
            "ward": "Mân Thái",
            "district": "Sơn Trà",
            "city": "Thành phố Đà Nẵng",
            "phone": "0236 3866 135",
            "address": " Đường Võ Nguyên Giáp, Mân Thái, Sơn Trà, Thành phố Đà Nẵng, Việt Nam",
            "type": "restaurant",
            "lat": "16.0802174",
            "lon": "108.2467155",
            "star": 3,
            "host": "Nguyễn Văn Tùng",
            "description": "Aura house là một ngôi nhà tre sinh thái đẹp & độc đáo được xây dựng ở bờ tây của sông Ayung hướng về phía đông để đón bình minh.",
            "startday": "05/09/2022"
        },
        {
            "id": 28,
            "mapid": 74820469,
            "userid": 2,
            "name": "Nam Danh - AMAZING CHEAP SEAFOOD",
            "road": "Đường Trần Quang Khải",
            "ward": "Thọ Quang",
            "district": "Sơn Trà",
            "city": "Thành phố Đà Nẵng",
            "phone": "0236 3866 135",
            "address": " Đường Trần Quang Khải, Thọ Quang, Sơn Trà, Thành phố Đà Nẵng, Việt Nam",
            "type": "restaurant",
            "lat": "16.102266",
            "lon": "108.2534494",
            "star": 3,
            "host": "Nguyễn Văn Tùng",
            "description": "Aura house là một ngôi nhà tre sinh thái đẹp & độc đáo được xây dựng ở bờ tây của sông Ayung hướng về phía đông để đón bình minh.",
            "startday": "05/09/2022"
        },
        {
            "id": 29,
            "mapid": 70102448,
            "userid": 3,
            "name": "Tiần Lê",
            "road": "Đường Lê Đại Hành",
            "ward": "Hòa Phát",
            "district": "Cẩm Lệ",
            "city": "Thành phố Đà Nẵng",
            "phone": "0236 3866 135",
            "address": " Đường Lê Đại Hành, Hòa Phát, Cẩm Lệ, Thành phố Đà Nẵng, Việt Nam",
            "type": "restaurant",
            "lat": "16.020723",
            "lon": "108.1978876",
            "star": 3,
            "host": "Nguyễn Văn Tùng",
            "description": "Aura house là một ngôi nhà tre sinh thái đẹp & độc đáo được xây dựng ở bờ tây của sông Ayung hướng về phía đông để đón bình minh.",
            "startday": "05/09/2022"
        },
        {
            "id": 30,
            "mapid": 62004599,
            "userid": 5,
            "name": "loving hut - vegan restaurant",
            "road": "Đường Lê Văn Hiến",
            "ward": "Khuê Mỹ",
            "district": "Ngũ Hành Sơn",
            "city": "Thành phố Đà Nẵng",
            "phone": "0236 3866 135",
            "address": " Đường Lê Văn Hiến, Khuê Mỹ, Ngũ Hành Sơn, Thành phố Đà Nẵng, Việt Nam",
            "type": "restaurant",
            "lat": "16.0252156",
            "lon": "108.2494793",
            "star": 3,
            "host": "Nguyễn Văn Tùng",
            "description": "Aura house là một ngôi nhà tre sinh thái đẹp & độc đáo được xây dựng ở bờ tây của sông Ayung hướng về phía đông để đón bình minh.",
            "startday": "05/09/2022"
        },
        {
            "id": 31,
            "mapid": 50382821,
            "userid": 2,
            "name": "Nhà hàng HanCook",
            "road": "Đường Hải Phòng",
            "ward": "Tân Chính",
            "district": "Thanh Khê",
            "city": "Thành phố Đà Nẵng",
            "phone": "0236 3866 135",
            "address": " Đường Hải Phòng, Tân Chính, Thanh Khê, Thành phố Đà Nẵng, Việt Nam",
            "type": "restaurant",
            "lat": "16.068911",
            "lon": "108.2049831",
            "star": 3,
            "host": "Nguyễn Văn Tùng",
            "description": "Aura house là một ngôi nhà tre sinh thái đẹp & độc đáo được xây dựng ở bờ tây của sông Ayung hướng về phía đông để đón bình minh.",
            "startday": "05/09/2022"
        }
    ],
    "interests": [
        {
            "id": 1,
            "name": "love1",
            "userid": 1,
            "placeid": 1
        },
        {
            "id": 2,
            "name": "love2",
            "userid": 1,
            "placeid": 2
        },
        {
            "id": 3,
            "name": "love3",
            "userid": 4,
            "placeid": 1
        },
        {
            "id": 4,
            "name": "love4",
            "userid": 4,
            "placeid": 2
        },
        {
            "id": 5,
            "name": "love1",
            "userid": 1,
            "placeid": 5
        },
        {
            "id": 6,
            "name": "love5",
            "userid": 4,
            "placeid": 10
        },
        {
            "id": 7,
            "name": "love3",
            "userid": 4,
            "placeid": 9
        }
    ],
    "comments": [
        {
            "id": 1,
            "userid": 1,
            "placeid": 1,
            "username":"KillerBee",
            "content": "Thank you Bua and team for such a memorable stay. I already miss the space and atmosphere. Wishing you all more success and will always book a stay here during my visits. Thank you for everything!",
            "image": "https://png.pngtree.com/png-clipart/20210308/original/pngtree-handsome-boy-avatar-sad-lonely-hand-drawn-cartoon-illustration-character-png-image_5763205.jpg",
            "date": "Ngày 12 tháng 8 năm 2022"
        },
        {
            "id": 2,
            "userid": 2,
            "placeid": 1,
            "username":"Winner",
            "content": "Thank you Bua and team for such a memorable stay. I already miss the space and atmosphere. Wishing you all more success and will always book a stay here during my visits. Thank you for everything!",
            "image": "https://encrypted-tbn0.gstatic.com/images?q=tbn:ANd9GcQWvdJhF2Fh0KX0KmMT4em_LKsqsEZx3XPKwA&usqp=CAU",
            "date": "Ngày 12 tháng 8 năm 2022"
        },
        {
            "id": 3,
            "userid": 3,
            "placeid": 1,
            "username":"John Wick",
            "content": "Thank you Bua and team for such a memorable stay. I already miss the space and atmosphere. Wishing you all more success and will always book a stay here during my visits. Thank you for everything!",
            "image": "https://encrypted-tbn0.gstatic.com/images?q=tbn:ANd9GcTcHuywykpIFUVVXJgm7Wn9Mo53Sz5EqYJ95w&usqp=CAU",
            "date": "Ngày 12 tháng 8 năm 2022"
        },
        {
            "id": 4,
            "userid": 1,
            "placeid": 2,
            "username":"KillerBee",
            "content": "Thank you Bua and team for such a memorable stay. I already miss the space and atmosphere. Wishing you all more success and will always book a stay here during my visits. Thank you for everything!",
            "image": "https://png.pngtree.com/png-clipart/20210308/original/pngtree-handsome-boy-avatar-sad-lonely-hand-drawn-cartoon-illustration-character-png-image_5763205.jpg",
            "date": "Ngày 12 tháng 8 năm 2022"
        },
        {
            "id": 5,
            "userid": 2,
            "placeid": 2,
            "username":"Winner",
            "content": "Thank you Bua and team for such a memorable stay. I already miss the space and atmosphere. Wishing you all more success and will always book a stay here during my visits. Thank you for everything!",
            "image": "https://encrypted-tbn0.gstatic.com/images?q=tbn:ANd9GcQWvdJhF2Fh0KX0KmMT4em_LKsqsEZx3XPKwA&usqp=CAU",
            "date": "Ngày 12 tháng 8 năm 2022"
        },
        {
            "id": 6,
            "userid": 3,
            "placeid": 2,
            "username":"John Wick",
            "content": "Thank you Bua and team for such a memorable stay. I already miss the space and atmosphere. Wishing you all more success and will always book a stay here during my visits. Thank you for everything!",
            "image": "https://encrypted-tbn0.gstatic.com/images?q=tbn:ANd9GcTcHuywykpIFUVVXJgm7Wn9Mo53Sz5EqYJ95w&usqp=CAU",
            "date": "Ngày 12 tháng 8 năm 2022"
        },
        {
            "id": 7,
            "userid": 4,
            "placeid": 2,
            "username":"Marguire",
            "content": "Thank you Bua and team for such a memorable stay. I already miss the space and atmosphere. Wishing you all more success and will always book a stay here during my visits. Thank you for everything!",
            "image": "https://encrypted-tbn0.gstatic.com/images?q=tbn:ANd9GcSZ739FInzHvrMQFxKWNEikOA1xeqDByrbnGw&usqp=CAU",
            "date": "Ngày 12 tháng 8 năm 2022"
        },
        {
            "id": 8,
            "userid": 1,
            "placeid": 3,
            "username":"KillerBee",
            "content": "Thank you Bua and team for such a memorable stay. I already miss the space and atmosphere. Wishing you all more success and will always book a stay here during my visits. Thank you for everything!",
            "image": "https://png.pngtree.com/png-clipart/20210308/original/pngtree-handsome-boy-avatar-sad-lonely-hand-drawn-cartoon-illustration-character-png-image_5763205.jpg",
            "date": "Ngày 12 tháng 8 năm 2022"
        },
        {
            "id": 9,
            "userid": 2,
            "placeid": 3,
            "username":"Winner",
            "content": "Thank you Bua and team for such a memorable stay. I already miss the space and atmosphere. Wishing you all more success and will always book a stay here during my visits. Thank you for everything!",
            "image": "https://encrypted-tbn0.gstatic.com/images?q=tbn:ANd9GcQWvdJhF2Fh0KX0KmMT4em_LKsqsEZx3XPKwA&usqp=CAU",
            "date": "Ngày 12 tháng 8 năm 2022"
        },
        {
            "id": 10,
            "userid": 3,
            "placeid": 3,
            "username":"John Wick",
            "content": "Thank you Bua and team for such a memorable stay. I already miss the space and atmosphere. Wishing you all more success and will always book a stay here during my visits. Thank you for everything!",
            "image": "https://encrypted-tbn0.gstatic.com/images?q=tbn:ANd9GcTcHuywykpIFUVVXJgm7Wn9Mo53Sz5EqYJ95w&usqp=CAU",
            "date": "Ngày 12 tháng 8 năm 2022"
        },
        {
            "id": 11,
            "userid": 4,
            "placeid": 3,
            "username":"Marguire",
            "content": "Thank you Bua and team for such a memorable stay. I already miss the space and atmosphere. Wishing you all more success and will always book a stay here during my visits. Thank you for everything!",
            "image": "https://encrypted-tbn0.gstatic.com/images?q=tbn:ANd9GcSZ739FInzHvrMQFxKWNEikOA1xeqDByrbnGw&usqp=CAU",
            "date": "Ngày 12 tháng 8 năm 2022"
        },
        {
            "id": 12,
            "userid": 1,
            "placeid": 4,
            "username":"KillerBee",
            "content": "Thank you Bua and team for such a memorable stay. I already miss the space and atmosphere. Wishing you all more success and will always book a stay here during my visits. Thank you for everything!",
            "image": "https://png.pngtree.com/png-clipart/20210308/original/pngtree-handsome-boy-avatar-sad-lonely-hand-drawn-cartoon-illustration-character-png-image_5763205.jpg",
            "date": "Ngày 12 tháng 8 năm 2022"
        },
        {
            "id": 13,
            "userid": 2,
            "placeid": 4,
            "username":"Winner",
            "content": "Thank you Bua and team for such a memorable stay. I already miss the space and atmosphere. Wishing you all more success and will always book a stay here during my visits. Thank you for everything!",
            "image": "https://encrypted-tbn0.gstatic.com/images?q=tbn:ANd9GcQWvdJhF2Fh0KX0KmMT4em_LKsqsEZx3XPKwA&usqp=CAU",
            "date": "Ngày 12 tháng 8 năm 2022"
        },
        {
            "id": 14,
            "userid": 3,
            "placeid": 4,
            "username":"John Wick",
            "content": "Thank you Bua and team for such a memorable stay. I already miss the space and atmosphere. Wishing you all more success and will always book a stay here during my visits. Thank you for everything!",
            "image": "https://encrypted-tbn0.gstatic.com/images?q=tbn:ANd9GcTcHuywykpIFUVVXJgm7Wn9Mo53Sz5EqYJ95w&usqp=CAU",
            "date": "Ngày 12 tháng 8 năm 2022"
        },
        {
            "id": 15,
            "userid": 4,
            "placeid": 4,
            "username":"Marguire",
            "content": "Thank you Bua and team for such a memorable stay. I already miss the space and atmosphere. Wishing you all more success and will always book a stay here during my visits. Thank you for everything!",
            "image": "https://encrypted-tbn0.gstatic.com/images?q=tbn:ANd9GcSZ739FInzHvrMQFxKWNEikOA1xeqDByrbnGw&usqp=CAU",
            "date": "Ngày 12 tháng 8 năm 2022"
        },
        {
            "id": 16,
            "userid": 1,
            "placeid": 5,
            "username":"KillerBee",
            "content": "Thank you Bua and team for such a memorable stay. I already miss the space and atmosphere. Wishing you all more success and will always book a stay here during my visits. Thank you for everything!",
            "image": "https://png.pngtree.com/png-clipart/20210308/original/pngtree-handsome-boy-avatar-sad-lonely-hand-drawn-cartoon-illustration-character-png-image_5763205.jpg",
            "date": "Ngày 12 tháng 8 năm 2022"
        },
        {
            "id": 17,
            "userid": 2,
            "placeid": 5,
            "username":"Winner",
            "content": "Thank you Bua and team for such a memorable stay. I already miss the space and atmosphere. Wishing you all more success and will always book a stay here during my visits. Thank you for everything!",
            "image": "https://encrypted-tbn0.gstatic.com/images?q=tbn:ANd9GcQWvdJhF2Fh0KX0KmMT4em_LKsqsEZx3XPKwA&usqp=CAU",
            "date": "Ngày 12 tháng 8 năm 2022"
        },
        {
            "id": 18,
            "userid": 3,
            "placeid": 6,
            "username":"John Wick",
            "content": "Thank you Bua and team for such a memorable stay. I already miss the space and atmosphere. Wishing you all more success and will always book a stay here during my visits. Thank you for everything!",
            "image": "https://encrypted-tbn0.gstatic.com/images?q=tbn:ANd9GcTcHuywykpIFUVVXJgm7Wn9Mo53Sz5EqYJ95w&usqp=CAU",
            "date": "Ngày 12 tháng 8 năm 2022"
        },
        {
            "id": 19,
            "userid": 4,
            "placeid": 6,
            "username":"Marguire",
            "content": "Thank you Bua and team for such a memorable stay. I already miss the space and atmosphere. Wishing you all more success and will always book a stay here during my visits. Thank you for everything!",
            "image": "https://encrypted-tbn0.gstatic.com/images?q=tbn:ANd9GcSZ739FInzHvrMQFxKWNEikOA1xeqDByrbnGw&usqp=CAU",
            "date": "Ngày 12 tháng 8 năm 2022"
        },
        {
            "id": 20,
            "userid": 2,
            "placeid": 7,
            "username":"Winner",
            "content": "Thank you Bua and team for such a memorable stay. I already miss the space and atmosphere. Wishing you all more success and will always book a stay here during my visits. Thank you for everything!",
            "image": "https://encrypted-tbn0.gstatic.com/images?q=tbn:ANd9GcQWvdJhF2Fh0KX0KmMT4em_LKsqsEZx3XPKwA&usqp=CAU",
            "date": "Ngày 12 tháng 8 năm 2022"
        },
        {
            "id": 21,
            "userid": 4,
            "placeid": 1,
            "username":"Marguire",
            "content": "Thank you Bua and team for such a memorable stay. I already miss the space and atmosphere. Wishing you all more success and will always book a stay here during my visits. Thank you for everything!",
            "image": "https://encrypted-tbn0.gstatic.com/images?q=tbn:ANd9GcSZ739FInzHvrMQFxKWNEikOA1xeqDByrbnGw&usqp=CAU",
            "date": "Ngày 12 tháng 8 năm 2022"
        }
    ],
    "accounts": [
        {
            "id": 1,
            "firstname": "Tung",
            "lastname": "Nguyen",
            "email": "nguyenvantung2001dn@gmail.com",
            "gender": "Nam",
            "username": "KillerBee",
            "password": "Tungnguyen304@",
            "image": "https://png.pngtree.com/png-clipart/20210308/original/pngtree-handsome-boy-avatar-sad-lonely-hand-drawn-cartoon-illustration-character-png-image_5763205.jpg",
            "role": 1,
            "startday": "25/9/2022",
            "phonenumber": "0899852441"
        },
        {
            "id": 2,
            "firstname": "Vu",
            "lastname": "Hoang",
            "email": "nguyenhoangvu2001dn@gmail.com",
            "gender": "Nam",
            "username": "Winner",
            "password": "Tungnguyen304@",
            "image": "https://encrypted-tbn0.gstatic.com/images?q=tbn:ANd9GcQWvdJhF2Fh0KX0KmMT4em_LKsqsEZx3XPKwA&usqp=CAU",
            "role": 2,
            "startday": "25/9/2022",
            "phonenumber": "0899852441"
        },
        {
            "id": 3,
            "firstname": "Tung",
            "lastname": "Nguyen",
            "email": "leanhkhanh2001dn@gmail.com",
            "gender": "Nam",
            "username": "JohnWick",
            "password": "Tungnguyen304@",
            "image": "https://encrypted-tbn0.gstatic.com/images?q=tbn:ANd9GcTcHuywykpIFUVVXJgm7Wn9Mo53Sz5EqYJ95w&usqp=CAU",
            "role": 2,
            "startday": "25/9/2022",
            "phonenumber": "0899852441"
        },
        {
            "id": 4,
            "firstname": "Thien",
            "lastname": "Le",
            "email": "levanthien2001dn@gmail.com",
            "gender": "Nam",
            "username": "Marguire",
            "password": "Tungnguyen304@",
            "image": "https://encrypted-tbn0.gstatic.com/images?q=tbn:ANd9GcSZ739FInzHvrMQFxKWNEikOA1xeqDByrbnGw&usqp=CAU",
            "role": 1,
            "startday": "25/9/2022",
            "phonenumber": "0899852441"
        },
        {
            "id": 5,
            "firstname": "Dung",
            "lastname": "Vo",
            "email": "votiendung2001dn@gmail.com",
            "gender": "Nam",
            "username": "Wibu",
            "password": "Tungnguyen304@",
            "image": "https://encrypted-tbn0.gstatic.com/images?q=tbn:ANd9GcSdzBSIlDdo0HPvq9qDBHgA0nXbfZKWbMYSH5TZWjrDjJOf9T0NtsPth_38mo0mToO6-8I&usqp=CAU",
            "role": 2,
            "startday": "25/9/2022",
            "phonenumber": "0899852441"
        }
    ],
    "images": [
        {
            "id": 1,
            "placeid": 1,
            "name": "https://a0.muscache.com/im/pictures/e25a9b25-fa98-4160-bfd1-039287bf38b6.jpg?im_w=1200"
        },
        {
            "id": 2,
            "placeid": 1,
            "name": "https://a0.muscache.com/im/pictures/miso/Hosting-36165132/original/64a7e292-1cf6-4653-a6e3-75dd196038b7.jpeg?im_w=720"
        },
        {
            "id": 3,
            "placeid": 1,
            "name": "https://a0.muscache.com/im/pictures/4f70b681-a792-4530-8c52-f2a8d262942d.jpg?im_w=720"
        },
        {
            "id": 4,
            "placeid": 1,
            "name": "https://a0.muscache.com/im/pictures/3648aed7-f383-4b74-ab5d-f444e20a85f2.jpg?im_w=1200"
        },
        {
            "id": 5,
            "placeid": 1,
            "name": "https://a0.muscache.com/im/pictures/5e902b1f-feb7-4adf-9334-9016561ff338.jpg?im_w=720"
        },
        {
            "id": 6,
            "placeid": 2,
            "name": "https://a0.muscache.com/im/pictures/e25a9b25-fa98-4160-bfd1-039287bf38b6.jpg?im_w=1200"
        },
        {
            "id": 7,
            "placeid": 2,
            "name": "https://a0.muscache.com/im/pictures/miso/Hosting-36165132/original/64a7e292-1cf6-4653-a6e3-75dd196038b7.jpeg?im_w=720"
        },
        {
            "id": 8,
            "placeid": 2,
            "name": "https://a0.muscache.com/im/pictures/4f70b681-a792-4530-8c52-f2a8d262942d.jpg?im_w=720"
        },
        {
            "id": 9,
            "placeid": 2,
            "name": "https://a0.muscache.com/im/pictures/3648aed7-f383-4b74-ab5d-f444e20a85f2.jpg?im_w=1200"
        },
        {
            "id": 10,
            "placeid": 2,
            "name": "https://a0.muscache.com/im/pictures/5e902b1f-feb7-4adf-9334-9016561ff338.jpg?im_w=720"
        },
        {
            "id": 11,
            "placeid": 3,
            "name": "https://a0.muscache.com/im/pictures/e25a9b25-fa98-4160-bfd1-039287bf38b6.jpg?im_w=1200"
        },
        {
            "id": 12,
            "placeid": 3,
            "name": "https://a0.muscache.com/im/pictures/miso/Hosting-36165132/original/64a7e292-1cf6-4653-a6e3-75dd196038b7.jpeg?im_w=720"
        },
        {
            "id": 13,
            "placeid": 3,
            "name": "https://a0.muscache.com/im/pictures/4f70b681-a792-4530-8c52-f2a8d262942d.jpg?im_w=720"
        },
        {
            "id": 14,
            "placeid": 3,
            "name": "https://a0.muscache.com/im/pictures/3648aed7-f383-4b74-ab5d-f444e20a85f2.jpg?im_w=1200"
        },
        {
            "id": 15,
            "placeid": 3,
            "name": "https://a0.muscache.com/im/pictures/5e902b1f-feb7-4adf-9334-9016561ff338.jpg?im_w=720"
        },
        {
            "id": 16,
            "placeid": 4,
            "name": "https://a0.muscache.com/im/pictures/e25a9b25-fa98-4160-bfd1-039287bf38b6.jpg?im_w=1200"
        },
        {
            "id": 17,
            "placeid": 4,
            "name": "https://a0.muscache.com/im/pictures/miso/Hosting-36165132/original/64a7e292-1cf6-4653-a6e3-75dd196038b7.jpeg?im_w=720"
        },
        {
            "id": 18,
            "placeid": 4,
            "name": "https://a0.muscache.com/im/pictures/4f70b681-a792-4530-8c52-f2a8d262942d.jpg?im_w=720"
        },
        {
            "id": 19,
            "placeid": 4,
            "name": "https://a0.muscache.com/im/pictures/3648aed7-f383-4b74-ab5d-f444e20a85f2.jpg?im_w=1200"
        },
        {
            "id": 20,
            "placeid": 4,
            "name": "https://a0.muscache.com/im/pictures/5e902b1f-feb7-4adf-9334-9016561ff338.jpg?im_w=720"
        },
        {
            "id": 21,
            "placeid": 5,
            "name": "https://a0.muscache.com/im/pictures/e25a9b25-fa98-4160-bfd1-039287bf38b6.jpg?im_w=1200"
        },
        {
            "id": 22,
            "placeid": 5,
            "name": "https://a0.muscache.com/im/pictures/miso/Hosting-36165132/original/64a7e292-1cf6-4653-a6e3-75dd196038b7.jpeg?im_w=720"
        },
        {
            "id": 23,
            "placeid": 5,
            "name": "https://a0.muscache.com/im/pictures/4f70b681-a792-4530-8c52-f2a8d262942d.jpg?im_w=720"
        },
        {
            "id": 24,
            "placeid": 5,
            "name": "https://a0.muscache.com/im/pictures/3648aed7-f383-4b74-ab5d-f444e20a85f2.jpg?im_w=1200"
        },
        {
            "id": 25,
            "placeid": 5,
            "name": "https://a0.muscache.com/im/pictures/5e902b1f-feb7-4adf-9334-9016561ff338.jpg?im_w=720"
        },
        {
            "id": 26,
            "placeid": 6,
            "name": "https://a0.muscache.com/im/pictures/e25a9b25-fa98-4160-bfd1-039287bf38b6.jpg?im_w=1200"
        },
        {
            "id": 27,
            "placeid": 6,
            "name": "https://a0.muscache.com/im/pictures/miso/Hosting-36165132/original/64a7e292-1cf6-4653-a6e3-75dd196038b7.jpeg?im_w=720"
        },
        {
            "id": 28,
            "placeid": 6,
            "name": "https://a0.muscache.com/im/pictures/4f70b681-a792-4530-8c52-f2a8d262942d.jpg?im_w=720"
        },
        {
            "id": 29,
            "placeid": 6,
            "name": "https://a0.muscache.com/im/pictures/3648aed7-f383-4b74-ab5d-f444e20a85f2.jpg?im_w=1200"
        },
        {
            "id": 30,
            "placeid": 6,
            "name": "https://a0.muscache.com/im/pictures/5e902b1f-feb7-4adf-9334-9016561ff338.jpg?im_w=720"
        },
        {
            "id": 31,
            "placeid": 7,
            "name": "https://a0.muscache.com/im/pictures/e25a9b25-fa98-4160-bfd1-039287bf38b6.jpg?im_w=1200"
        },
        {
            "id": 32,
            "placeid": 7,
            "name": "https://a0.muscache.com/im/pictures/miso/Hosting-36165132/original/64a7e292-1cf6-4653-a6e3-75dd196038b7.jpeg?im_w=720"
        },
        {
            "id": 33,
            "placeid": 7,
            "name": "https://a0.muscache.com/im/pictures/4f70b681-a792-4530-8c52-f2a8d262942d.jpg?im_w=720"
        },
        {
            "id": 34,
            "placeid": 7,
            "name": "https://a0.muscache.com/im/pictures/3648aed7-f383-4b74-ab5d-f444e20a85f2.jpg?im_w=1200"
        },
        {
            "id": 35,
            "placeid": 7,
            "name": "https://a0.muscache.com/im/pictures/5e902b1f-feb7-4adf-9334-9016561ff338.jpg?im_w=720"
        },
        {
            "id": 36,
            "placeid": 8,
            "name": "https://a0.muscache.com/im/pictures/e25a9b25-fa98-4160-bfd1-039287bf38b6.jpg?im_w=1200"
        },
        {
            "id": 37,
            "placeid": 8,
            "name": "https://a0.muscache.com/im/pictures/miso/Hosting-36165132/original/64a7e292-1cf6-4653-a6e3-75dd196038b7.jpeg?im_w=720"
        },
        {
            "id": 38,
            "placeid": 8,
            "name": "https://a0.muscache.com/im/pictures/4f70b681-a792-4530-8c52-f2a8d262942d.jpg?im_w=720"
        },
        {
            "id": 39,
            "placeid": 8,
            "name": "https://a0.muscache.com/im/pictures/3648aed7-f383-4b74-ab5d-f444e20a85f2.jpg?im_w=1200"
        },
        {
            "id": 40,
            "placeid": 8,
            "name": "https://a0.muscache.com/im/pictures/5e902b1f-feb7-4adf-9334-9016561ff338.jpg?im_w=720"
        },
        {
            "id": 41,
            "placeid": 9,
            "name": "https://a0.muscache.com/im/pictures/e25a9b25-fa98-4160-bfd1-039287bf38b6.jpg?im_w=1200"
        },
        {
            "id": 42,
            "placeid": 9,
            "name": "https://a0.muscache.com/im/pictures/miso/Hosting-36165132/original/64a7e292-1cf6-4653-a6e3-75dd196038b7.jpeg?im_w=720"
        },
        {
            "id": 43,
            "placeid": 9,
            "name": "https://a0.muscache.com/im/pictures/4f70b681-a792-4530-8c52-f2a8d262942d.jpg?im_w=720"
        },
        {
            "id": 44,
            "placeid": 9,
            "name": "https://a0.muscache.com/im/pictures/3648aed7-f383-4b74-ab5d-f444e20a85f2.jpg?im_w=1200"
        },
        {
            "id": 45,
            "placeid": 9,
            "name": "https://a0.muscache.com/im/pictures/5e902b1f-feb7-4adf-9334-9016561ff338.jpg?im_w=720"
        },
        {
            "id": 46,
            "placeid": 10,
            "name": "https://a0.muscache.com/im/pictures/e25a9b25-fa98-4160-bfd1-039287bf38b6.jpg?im_w=1200"
        },
        {
            "id": 47,
            "placeid": 10,
            "name": "https://a0.muscache.com/im/pictures/miso/Hosting-36165132/original/64a7e292-1cf6-4653-a6e3-75dd196038b7.jpeg?im_w=720"
        },
        {
            "id": 48,
            "placeid": 10,
            "name": "https://a0.muscache.com/im/pictures/4f70b681-a792-4530-8c52-f2a8d262942d.jpg?im_w=720"
        },
        {
            "id": 49,
            "placeid": 10,
            "name": "https://a0.muscache.com/im/pictures/3648aed7-f383-4b74-ab5d-f444e20a85f2.jpg?im_w=1200"
        },
        {
            "id": 50,
            "placeid": 10,
            "name": "https://a0.muscache.com/im/pictures/5e902b1f-feb7-4adf-9334-9016561ff338.jpg?im_w=720"
        },
        {
            "id": 51,
            "placeid": 11,
            "name": "https://a0.muscache.com/im/pictures/e25a9b25-fa98-4160-bfd1-039287bf38b6.jpg?im_w=1200"
        },
        {
            "id": 52,
            "placeid": 11,
            "name": "https://a0.muscache.com/im/pictures/miso/Hosting-36165132/original/64a7e292-1cf6-4653-a6e3-75dd196038b7.jpeg?im_w=720"
        },
        {
            "id": 53,
            "placeid": 11,
            "name": "https://a0.muscache.com/im/pictures/4f70b681-a792-4530-8c52-f2a8d262942d.jpg?im_w=720"
        },
        {
            "id": 54,
            "placeid": 11,
            "name": "https://a0.muscache.com/im/pictures/3648aed7-f383-4b74-ab5d-f444e20a85f2.jpg?im_w=1200"
        },
        {
            "id": 55,
            "placeid": 11,
            "name": "https://a0.muscache.com/im/pictures/5e902b1f-feb7-4adf-9334-9016561ff338.jpg?im_w=720"
        },
        {
            "id": 56,
            "placeid": 12,
            "name": "https://a0.muscache.com/im/pictures/e25a9b25-fa98-4160-bfd1-039287bf38b6.jpg?im_w=1200"
        },
        {
            "id": 57,
            "placeid": 12,
            "name": "https://a0.muscache.com/im/pictures/miso/Hosting-36165132/original/64a7e292-1cf6-4653-a6e3-75dd196038b7.jpeg?im_w=720"
        },
        {
            "id": 58,
            "placeid": 12,
            "name": "https://a0.muscache.com/im/pictures/4f70b681-a792-4530-8c52-f2a8d262942d.jpg?im_w=720"
        },
        {
            "id": 59,
            "placeid": 12,
            "name": "https://a0.muscache.com/im/pictures/3648aed7-f383-4b74-ab5d-f444e20a85f2.jpg?im_w=1200"
        },
        {
            "id": 60,
            "placeid": 12,
            "name": "https://a0.muscache.com/im/pictures/5e902b1f-feb7-4adf-9334-9016561ff338.jpg?im_w=720"
        },
        {
            "id": 61,
            "placeid": 13,
            "name": "https://a0.muscache.com/im/pictures/e25a9b25-fa98-4160-bfd1-039287bf38b6.jpg?im_w=1200"
        },
        {
            "id": 62,
            "placeid": 13,
            "name": "https://a0.muscache.com/im/pictures/miso/Hosting-36165132/original/64a7e292-1cf6-4653-a6e3-75dd196038b7.jpeg?im_w=720"
        },
        {
            "id": 63,
            "placeid": 13,
            "name": "https://a0.muscache.com/im/pictures/4f70b681-a792-4530-8c52-f2a8d262942d.jpg?im_w=720"
        },
        {
            "id": 64,
            "placeid": 13,
            "name": "https://a0.muscache.com/im/pictures/3648aed7-f383-4b74-ab5d-f444e20a85f2.jpg?im_w=1200"
        },
        {
            "id": 65,
            "placeid": 13,
            "name": "https://a0.muscache.com/im/pictures/5e902b1f-feb7-4adf-9334-9016561ff338.jpg?im_w=720"
        },
        {
            "id": 66,
            "placeid": 14,
            "name": "https://a0.muscache.com/im/pictures/e25a9b25-fa98-4160-bfd1-039287bf38b6.jpg?im_w=1200"
        },
        {
            "id": 67,
            "placeid": 14,
            "name": "https://a0.muscache.com/im/pictures/miso/Hosting-36165132/original/64a7e292-1cf6-4653-a6e3-75dd196038b7.jpeg?im_w=720"
        },
        {
            "id": 68,
            "placeid": 14,
            "name": "https://a0.muscache.com/im/pictures/4f70b681-a792-4530-8c52-f2a8d262942d.jpg?im_w=720"
        },
        {
            "id": 69,
            "placeid": 14,
            "name": "https://a0.muscache.com/im/pictures/3648aed7-f383-4b74-ab5d-f444e20a85f2.jpg?im_w=1200"
        },
        {
            "id": 70,
            "placeid": 14,
            "name": "https://a0.muscache.com/im/pictures/5e902b1f-feb7-4adf-9334-9016561ff338.jpg?im_w=720"
        },
        {
            "id": 71,
            "placeid": 15,
            "name": "https://a0.muscache.com/im/pictures/e25a9b25-fa98-4160-bfd1-039287bf38b6.jpg?im_w=1200"
        },
        {
            "id": 72,
            "placeid": 15,
            "name": "https://a0.muscache.com/im/pictures/miso/Hosting-36165132/original/64a7e292-1cf6-4653-a6e3-75dd196038b7.jpeg?im_w=720"
        },
        {
            "id": 73,
            "placeid": 15,
            "name": "https://a0.muscache.com/im/pictures/4f70b681-a792-4530-8c52-f2a8d262942d.jpg?im_w=720"
        },
        {
            "id": 74,
            "placeid": 15,
            "name": "https://a0.muscache.com/im/pictures/3648aed7-f383-4b74-ab5d-f444e20a85f2.jpg?im_w=1200"
        },
        {
            "id": 75,
            "placeid": 15,
            "name": "https://a0.muscache.com/im/pictures/5e902b1f-feb7-4adf-9334-9016561ff338.jpg?im_w=720"
        },
        {
            "id": 76,
            "placeid": 16,
            "name": "https://a0.muscache.com/im/pictures/e25a9b25-fa98-4160-bfd1-039287bf38b6.jpg?im_w=1200"
        },
        {
            "id": 77,
            "placeid": 16,
            "name": "https://a0.muscache.com/im/pictures/miso/Hosting-36165132/original/64a7e292-1cf6-4653-a6e3-75dd196038b7.jpeg?im_w=720"
        },
        {
            "id": 78,
            "placeid": 16,
            "name": "https://a0.muscache.com/im/pictures/4f70b681-a792-4530-8c52-f2a8d262942d.jpg?im_w=720"
        },
        {
            "id": 79,
            "placeid": 16,
            "name": "https://a0.muscache.com/im/pictures/3648aed7-f383-4b74-ab5d-f444e20a85f2.jpg?im_w=1200"
        },
        {
            "id": 80,
            "placeid": 16,
            "name": "https://a0.muscache.com/im/pictures/5e902b1f-feb7-4adf-9334-9016561ff338.jpg?im_w=720"
        },
        {
            "id": 81,
            "placeid": 17,
            "name": "https://a0.muscache.com/im/pictures/e25a9b25-fa98-4160-bfd1-039287bf38b6.jpg?im_w=1200"
        },
        {
            "id": 82,
            "placeid": 17,
            "name": "https://a0.muscache.com/im/pictures/miso/Hosting-36165132/original/64a7e292-1cf6-4653-a6e3-75dd196038b7.jpeg?im_w=720"
        },
        {
            "id": 83,
            "placeid": 17,
            "name": "https://a0.muscache.com/im/pictures/4f70b681-a792-4530-8c52-f2a8d262942d.jpg?im_w=720"
        },
        {
            "id": 84,
            "placeid": 17,
            "name": "https://a0.muscache.com/im/pictures/3648aed7-f383-4b74-ab5d-f444e20a85f2.jpg?im_w=1200"
        },
        {
            "id": 85,
            "placeid": 17,
            "name": "https://a0.muscache.com/im/pictures/5e902b1f-feb7-4adf-9334-9016561ff338.jpg?im_w=720"
        },
        {
            "id": 86,
            "placeid": 18,
            "name": "https://a0.muscache.com/im/pictures/e25a9b25-fa98-4160-bfd1-039287bf38b6.jpg?im_w=1200"
        },
        {
            "id": 87,
            "placeid": 18,
            "name": "https://a0.muscache.com/im/pictures/miso/Hosting-36165132/original/64a7e292-1cf6-4653-a6e3-75dd196038b7.jpeg?im_w=720"
        },
        {
            "id": 88,
            "placeid": 18,
            "name": "https://a0.muscache.com/im/pictures/4f70b681-a792-4530-8c52-f2a8d262942d.jpg?im_w=720"
        },
        {
            "id": 89,
            "placeid": 18,
            "name": "https://a0.muscache.com/im/pictures/3648aed7-f383-4b74-ab5d-f444e20a85f2.jpg?im_w=1200"
        },
        {
            "id": 90,
            "placeid": 18,
            "name": "https://a0.muscache.com/im/pictures/5e902b1f-feb7-4adf-9334-9016561ff338.jpg?im_w=720"
        },
        {
            "id": 91,
            "placeid": 19,
            "name": "https://a0.muscache.com/im/pictures/e25a9b25-fa98-4160-bfd1-039287bf38b6.jpg?im_w=1200"
        },
        {
            "id": 92,
            "placeid": 19,
            "name": "https://a0.muscache.com/im/pictures/miso/Hosting-36165132/original/64a7e292-1cf6-4653-a6e3-75dd196038b7.jpeg?im_w=720"
        },
        {
            "id": 93,
            "placeid": 19,
            "name": "https://a0.muscache.com/im/pictures/4f70b681-a792-4530-8c52-f2a8d262942d.jpg?im_w=720"
        },
        {
            "id": 94,
            "placeid": 19,
            "name": "https://a0.muscache.com/im/pictures/3648aed7-f383-4b74-ab5d-f444e20a85f2.jpg?im_w=1200"
        },
        {
            "id": 95,
            "placeid": 19,
            "name": "https://a0.muscache.com/im/pictures/5e902b1f-feb7-4adf-9334-9016561ff338.jpg?im_w=720"
        },
        {
            "id": 96,
            "placeid": 20,
            "name": "https://a0.muscache.com/im/pictures/e25a9b25-fa98-4160-bfd1-039287bf38b6.jpg?im_w=1200"
        },
        {
            "id": 97,
            "placeid": 20,
            "name": "https://a0.muscache.com/im/pictures/miso/Hosting-36165132/original/64a7e292-1cf6-4653-a6e3-75dd196038b7.jpeg?im_w=720"
        },
        {
            "id": 98,
            "placeid": 20,
            "name": "https://a0.muscache.com/im/pictures/4f70b681-a792-4530-8c52-f2a8d262942d.jpg?im_w=720"
        },
        {
            "id": 99,
            "placeid": 20,
            "name": "https://a0.muscache.com/im/pictures/3648aed7-f383-4b74-ab5d-f444e20a85f2.jpg?im_w=1200"
        },
        {
            "id": 100,
            "placeid": 20,
            "name": "https://a0.muscache.com/im/pictures/5e902b1f-feb7-4adf-9334-9016561ff338.jpg?im_w=720"
        },
        {
            "id": 101,
            "placeid": 21,
            "name": "https://a0.muscache.com/im/pictures/e25a9b25-fa98-4160-bfd1-039287bf38b6.jpg?im_w=1200"
        },
        {
            "id": 102,
            "placeid": 21,
            "name": "https://a0.muscache.com/im/pictures/miso/Hosting-36165132/original/64a7e292-1cf6-4653-a6e3-75dd196038b7.jpeg?im_w=720"
        },
        {
            "id": 103,
            "placeid": 21,
            "name": "https://a0.muscache.com/im/pictures/4f70b681-a792-4530-8c52-f2a8d262942d.jpg?im_w=720"
        },
        {
            "id": 104,
            "placeid": 21,
            "name": "https://a0.muscache.com/im/pictures/3648aed7-f383-4b74-ab5d-f444e20a85f2.jpg?im_w=1200"
        },
        {
            "id": 105,
            "placeid": 21,
            "name": "https://a0.muscache.com/im/pictures/5e902b1f-feb7-4adf-9334-9016561ff338.jpg?im_w=720"
        },
        {
            "id": 106,
            "placeid": 22,
            "name": "https://a0.muscache.com/im/pictures/e25a9b25-fa98-4160-bfd1-039287bf38b6.jpg?im_w=1200"
        },
        {
            "id": 107,
            "placeid": 22,
            "name": "https://a0.muscache.com/im/pictures/miso/Hosting-36165132/original/64a7e292-1cf6-4653-a6e3-75dd196038b7.jpeg?im_w=720"
        },
        {
            "id": 108,
            "placeid": 22,
            "name": "https://a0.muscache.com/im/pictures/4f70b681-a792-4530-8c52-f2a8d262942d.jpg?im_w=720"
        },
        {
            "id": 109,
            "placeid": 22,
            "name": "https://a0.muscache.com/im/pictures/3648aed7-f383-4b74-ab5d-f444e20a85f2.jpg?im_w=1200"
        },
        {
            "id": 110,
            "placeid": 22,
            "name": "https://a0.muscache.com/im/pictures/5e902b1f-feb7-4adf-9334-9016561ff338.jpg?im_w=720"
        },
        {
            "id": 111,
            "placeid": 23,
            "name": "https://a0.muscache.com/im/pictures/e25a9b25-fa98-4160-bfd1-039287bf38b6.jpg?im_w=1200"
        },
        {
            "id": 112,
            "placeid": 23,
            "name": "https://a0.muscache.com/im/pictures/miso/Hosting-36165132/original/64a7e292-1cf6-4653-a6e3-75dd196038b7.jpeg?im_w=720"
        },
        {
            "id": 113,
            "placeid": 23,
            "name": "https://a0.muscache.com/im/pictures/4f70b681-a792-4530-8c52-f2a8d262942d.jpg?im_w=720"
        },
        {
            "id": 114,
            "placeid": 23,
            "name": "https://a0.muscache.com/im/pictures/3648aed7-f383-4b74-ab5d-f444e20a85f2.jpg?im_w=1200"
        },
        {
            "id": 115,
            "placeid": 23,
            "name": "https://a0.muscache.com/im/pictures/5e902b1f-feb7-4adf-9334-9016561ff338.jpg?im_w=720"
        },
        {
            "id": 116,
            "placeid": 24,
            "name": "https://a0.muscache.com/im/pictures/e25a9b25-fa98-4160-bfd1-039287bf38b6.jpg?im_w=1200"
        },
        {
            "id": 117,
            "placeid": 24,
            "name": "https://a0.muscache.com/im/pictures/miso/Hosting-36165132/original/64a7e292-1cf6-4653-a6e3-75dd196038b7.jpeg?im_w=720"
        },
        {
            "id": 118,
            "placeid": 24,
            "name": "https://a0.muscache.com/im/pictures/4f70b681-a792-4530-8c52-f2a8d262942d.jpg?im_w=720"
        },
        {
            "id": 119,
            "placeid": 24,
            "name": "https://a0.muscache.com/im/pictures/3648aed7-f383-4b74-ab5d-f444e20a85f2.jpg?im_w=1200"
        },
        {
            "id": 120,
            "placeid": 24,
            "name": "https://a0.muscache.com/im/pictures/5e902b1f-feb7-4adf-9334-9016561ff338.jpg?im_w=720"
        },
        {
            "id": 121,
            "placeid": 25,
            "name": "https://a0.muscache.com/im/pictures/e25a9b25-fa98-4160-bfd1-039287bf38b6.jpg?im_w=1200"
        },
        {
            "id": 122,
            "placeid": 25,
            "name": "https://a0.muscache.com/im/pictures/miso/Hosting-36165132/original/64a7e292-1cf6-4653-a6e3-75dd196038b7.jpeg?im_w=720"
        },
        {
            "id": 123,
            "placeid": 25,
            "name": "https://a0.muscache.com/im/pictures/4f70b681-a792-4530-8c52-f2a8d262942d.jpg?im_w=720"
        },
        {
            "id": 124,
            "placeid": 25,
            "name": "https://a0.muscache.com/im/pictures/3648aed7-f383-4b74-ab5d-f444e20a85f2.jpg?im_w=1200"
        },
        {
            "id": 125,
            "placeid": 25,
            "name": "https://a0.muscache.com/im/pictures/5e902b1f-feb7-4adf-9334-9016561ff338.jpg?im_w=720"
        },
        {
            "id": 126,
            "placeid": 26,
            "name": "https://a0.muscache.com/im/pictures/e25a9b25-fa98-4160-bfd1-039287bf38b6.jpg?im_w=1200"
        },
        {
            "id": 127,
            "placeid": 26,
            "name": "https://a0.muscache.com/im/pictures/miso/Hosting-36165132/original/64a7e292-1cf6-4653-a6e3-75dd196038b7.jpeg?im_w=720"
        },
        {
            "id": 128,
            "placeid": 26,
            "name": "https://a0.muscache.com/im/pictures/4f70b681-a792-4530-8c52-f2a8d262942d.jpg?im_w=720"
        },
        {
            "id": 129,
            "placeid": 26,
            "name": "https://a0.muscache.com/im/pictures/3648aed7-f383-4b74-ab5d-f444e20a85f2.jpg?im_w=1200"
        },
        {
            "id": 130,
            "placeid": 26,
            "name": "https://a0.muscache.com/im/pictures/5e902b1f-feb7-4adf-9334-9016561ff338.jpg?im_w=720"
        },
        {
            "id": 131,
            "placeid": 27,
            "name": "https://a0.muscache.com/im/pictures/e25a9b25-fa98-4160-bfd1-039287bf38b6.jpg?im_w=1200"
        },
        {
            "id": 132,
            "placeid": 27,
            "name": "https://a0.muscache.com/im/pictures/miso/Hosting-36165132/original/64a7e292-1cf6-4653-a6e3-75dd196038b7.jpeg?im_w=720"
        },
        {
            "id": 133,
            "placeid": 27,
            "name": "https://a0.muscache.com/im/pictures/4f70b681-a792-4530-8c52-f2a8d262942d.jpg?im_w=720"
        },
        {
            "id": 134,
            "placeid": 27,
            "name": "https://a0.muscache.com/im/pictures/3648aed7-f383-4b74-ab5d-f444e20a85f2.jpg?im_w=1200"
        },
        {
            "id": 135,
            "placeid": 27,
            "name": "https://a0.muscache.com/im/pictures/5e902b1f-feb7-4adf-9334-9016561ff338.jpg?im_w=720"
        },
        {
            "id": 136,
            "placeid": 28,
            "name": "https://a0.muscache.com/im/pictures/e25a9b25-fa98-4160-bfd1-039287bf38b6.jpg?im_w=1200"
        },
        {
            "id": 137,
            "placeid": 28,
            "name": "https://a0.muscache.com/im/pictures/miso/Hosting-36165132/original/64a7e292-1cf6-4653-a6e3-75dd196038b7.jpeg?im_w=720"
        },
        {
            "id": 138,
            "placeid": 28,
            "name": "https://a0.muscache.com/im/pictures/4f70b681-a792-4530-8c52-f2a8d262942d.jpg?im_w=720"
        },
        {
            "id": 139,
            "placeid": 28,
            "name": "https://a0.muscache.com/im/pictures/3648aed7-f383-4b74-ab5d-f444e20a85f2.jpg?im_w=1200"
        },
        {
            "id": 140,
            "placeid": 28,
            "name": "https://a0.muscache.com/im/pictures/5e902b1f-feb7-4adf-9334-9016561ff338.jpg?im_w=720"
        },
        {
            "id": 141,
            "placeid": 29,
            "name": "https://a0.muscache.com/im/pictures/e25a9b25-fa98-4160-bfd1-039287bf38b6.jpg?im_w=1200"
        },
        {
            "id": 142,
            "placeid": 29,
            "name": "https://a0.muscache.com/im/pictures/miso/Hosting-36165132/original/64a7e292-1cf6-4653-a6e3-75dd196038b7.jpeg?im_w=720"
        },
        {
            "id": 143,
            "placeid": 29,
            "name": "https://a0.muscache.com/im/pictures/4f70b681-a792-4530-8c52-f2a8d262942d.jpg?im_w=720"
        },
        {
            "id": 144,
            "placeid": 29,
            "name": "https://a0.muscache.com/im/pictures/3648aed7-f383-4b74-ab5d-f444e20a85f2.jpg?im_w=1200"
        },
        {
            "id": 145,
            "placeid": 29,
            "name": "https://a0.muscache.com/im/pictures/5e902b1f-feb7-4adf-9334-9016561ff338.jpg?im_w=720"
        },
        {
            "id": 146,
            "placeid": 30,
            "name": "https://a0.muscache.com/im/pictures/e25a9b25-fa98-4160-bfd1-039287bf38b6.jpg?im_w=1200"
        },
        {
            "id": 147,
            "placeid": 30,
            "name": "https://a0.muscache.com/im/pictures/miso/Hosting-36165132/original/64a7e292-1cf6-4653-a6e3-75dd196038b7.jpeg?im_w=720"
        },
        {
            "id": 148,
            "placeid": 30,
            "name": "https://a0.muscache.com/im/pictures/4f70b681-a792-4530-8c52-f2a8d262942d.jpg?im_w=720"
        },
        {
            "id": 149,
            "placeid": 30,
            "name": "https://a0.muscache.com/im/pictures/3648aed7-f383-4b74-ab5d-f444e20a85f2.jpg?im_w=1200"
        },
        {
            "id": 150,
            "placeid": 30,
            "name": "https://a0.muscache.com/im/pictures/5e902b1f-feb7-4adf-9334-9016561ff338.jpg?im_w=720"
        },
        {
            "id": 151,
            "placeid": 31,
            "name": "https://a0.muscache.com/im/pictures/e25a9b25-fa98-4160-bfd1-039287bf38b6.jpg?im_w=1200"
        },
        {
            "id": 152,
            "placeid": 31,
            "name": "https://a0.muscache.com/im/pictures/miso/Hosting-36165132/original/64a7e292-1cf6-4653-a6e3-75dd196038b7.jpeg?im_w=720"
        },
        {
            "id": 153,
            "placeid": 31,
            "name": "https://a0.muscache.com/im/pictures/4f70b681-a792-4530-8c52-f2a8d262942d.jpg?im_w=720"
        },
        {
            "id": 154,
            "placeid": 31,
            "name": "https://a0.muscache.com/im/pictures/3648aed7-f383-4b74-ab5d-f444e20a85f2.jpg?im_w=1200"
        },
        {
            "id": 155,
            "placeid": 31,
            "name": "https://a0.muscache.com/im/pictures/5e902b1f-feb7-4adf-9334-9016561ff338.jpg?im_w=720"
        },
        {
            "id": 156,
            "placeid": 32,
            "name": "https://a0.muscache.com/im/pictures/e25a9b25-fa98-4160-bfd1-039287bf38b6.jpg?im_w=1200"
        },
        {
            "id": 157,
            "placeid": 32,
            "name": "https://a0.muscache.com/im/pictures/miso/Hosting-36165132/original/64a7e292-1cf6-4653-a6e3-75dd196038b7.jpeg?im_w=720"
        },
        {
            "id": 158,
            "placeid": 32,
            "name": "https://a0.muscache.com/im/pictures/4f70b681-a792-4530-8c52-f2a8d262942d.jpg?im_w=720"
        },
        {
            "id": 159,
            "placeid": 32,
            "name": "https://a0.muscache.com/im/pictures/3648aed7-f383-4b74-ab5d-f444e20a85f2.jpg?im_w=1200"
        },
        {
            "id": 160,
            "placeid": 32,
            "name": "https://a0.muscache.com/im/pictures/5e902b1f-feb7-4adf-9334-9016561ff338.jpg?im_w=720"
        }
    ],
    "criterias": [
        {
            "id": 1,
            "name": "Sử dụng vật liệu thân thiện môi trường",
            "image": "ong-hut-giay-hinh-tre.jpg"
        },
        {
            "id": 2,
            "name": "Sử dụng ánh sáng tự nhiên",
            "image": "anh-sang-tu-nhien.jpg"
        },
        {
            "id": 3,
            "name": "Tiết kiệm nước",
            "image": "tiet-kiem-nuoc.jpg"
        },
        {
            "id": 4,
            "name": "Có thảm thực vật",
            "image": "tham-thuc-vat.jpg"
        },
        {
            "id": 5,
            "name": "An toàn vệ sinh",
            "image": "an-toan-ve-sinh.jpg"
        },
        {
            "id": 6,
            "name": "Phân loại và xử lý rác thải",
            "image": "phan-loai-xu-ly-rac-thai.jpg"
        },
        {
            "id": 7,
            "name": "Ứng dụng công nghệ tự động để tiết kiệm năng lượng",
            "image": "ung-dung-cong-nghe-tu-dong.jpg"
        },
        {
            "id": 8,
            "name": "Sử dụng khăn vải thay giấy lau",
            "image": "khan-vai.jpg"
        },
        {
            "id": 9,
            "name": "Môi trường thoáng mát, sạch sẽ",
            "image": "moi-truong-thoat-mat-sach-se.jpg"
        },
        {
            "id": 10,
            "name": "Tường cách âm, không gian ít ồn",
            "image": "tuong-cach-am.jpg"
        }
    ]
}
